[
{"Country": "USA", "Phone": "(203) 226-1111", "Duration": "MON->8:00am-9:00pm|TUE->8:00am-9:00pm|WED->8:00am-9:00pm|THU->8:00am-9:00pm|FRI->8:00am-9:00pm|SAT->8:00am-9:00pm|SUN->9:00am-7:00pm|", "Latitude": "41.14008", "Longitude": "-73.3526", "Street": "374 Post Rd E", "City": "Westport", "Zipcode": "06880", "State": "CT", "StoreName": "ChoicePet|CT"},
{"Country": "USA", "Phone": "(203) 968-2600", "Duration": "MON->8:00am-9:00pm|TUE->8:00am-9:00pm|WED->8:00am-9:00pm|THU->8:00am-9:00pm|FRI->8:00am-9:00pm|SAT->8:00am-9:00pm|SUN->9:00am-7:00pm|", "Latitude": "41.10383", "Longitude": "-73.5478", "Street": "949 High Ridge Rd", "City": "Stamford", "Zipcode": "06905", "State": "CT", "StoreName": "ChoicePet|CT"},
{"Country": "USA", "Phone": "(203) 853-2777", "Duration": "MON->8:00am-9:00pm|TUE->8:00am-9:00pm|WED->8:00am-9:00pm|THU->8:00am-9:00pm|FRI->8:00am-9:00pm|SAT->8:00am-9:00pm|SUN->9:00am-7:00pm|", "Latitude": "41.10247", "Longitude": "-73.4402", "Street": "360 Connecticut Ave", "City": "Norwalk", "Zipcode": "06854", "State": "CT", "StoreName": "ChoicePet|CT"},
{"Country": "USA", "Phone": "(203) 234-1711", "Duration": "MON->8:00am-9:00pm|TUE->8:00am-9:00pm|WED->8:00am-9:00pm|THU->8:00am-9:00pm|FRI->8:00am-9:00pm|SAT->8:00am-9:00pm|SUN->9:00am-7:00pm|", "Latitude": "41.39381", "Longitude": "-72.8622", "Street": "63 Washington Ave", "City": "NorthHaven", "Zipcode": "06473", "State": "CT", "StoreName": "ChoicePet|CT"},
{"Country": "USA", "Phone": "(203) 261-1222", "Duration": "MON->8:00am-9:00pm|TUE->8:00am-9:00pm|WED->8:00am-9:00pm|THU->8:00am-9:00pm|FRI->8:00am-9:00pm|SAT->8:00am-9:00pm|SUN->9:00am-7:00pm|", "Latitude": "41.31909", "Longitude": "-73.2141", "Street": "535 Monroe Turnpike", "City": "Monroe", "Zipcode": "06468", "State": "CT", "StoreName": "ChoicePet|CT"},
{"Country": "USA", "Phone": "(203) 869-4999", "Duration": "MON->7:00am-9:00pm|TUE->7:00am-9:00pm|WED->7:00am-9:00pm|THU->7:00am-9:00pm|FRI->7:00am-9:00pm|SAT->7:00am-9:00pm|SUN->9:00am-7:00pm|", "Latitude": "41.03292", "Longitude": "-73.6241", "Street": "80 E Putnam Ave", "City": "Greenwich", "Zipcode": "06830", "State": "CT", "StoreName": "ChoicePet|CT"},
{"Country": "USA", "Phone": "(203) 792-5800", "Duration": "MON->8:00am-9:00pm|TUE->8:00am-9:00pm|WED->8:00am-9:00pm|THU->8:00am-9:00pm|FRI->8:00am-9:00pm|SAT->8:00am-9:00pm|SUN->9:00am-7:00pm|", "Latitude": "41.40717", "Longitude": "-73.4149", "Street": "67 Newtown Rd", "City": "Danbury", "Zipcode": "06810", "State": "CT", "StoreName": "ChoicePet|CT"},
{"Country": "USA", "Phone": "(203) 334-4242", "Duration": "MON->8:00am-9:00pm|TUE->8:00am-9:00pm|WED->8:00am-9:00pm|THU->8:00am-9:00pm|FRI->8:00am-9:00pm|SAT->8:00am-9:00pm|SUN->9:00am-7:00pm|", "Latitude": "41.17998", "Longitude": "-73.2490", "Street": "1947 Black Rock Turnpike", "City": "Fairfield", "Zipcode": "06825", "State": "CT", "StoreName": "ChoicePet|CT"},
{"Country": "USA", "Phone": "Store: (203) 244-5025Grooming: (203) 244-5198", "Duration": "MON->8:00am-9:00pm|TUE->8:00am-9:00pm|WED->8:00am-9:00pm|THU->8:00am-9:00pm|FRI->8:00am-9:00pm|SAT->8:00am-9:00pm|SUN->9:00am-7:00pm|", "Latitude": "41.29503", "Longitude": "-73.4961", "Street": "125 Danbury Road Ste 6Ridgefield", "City": "", "Zipcode": "06877", "State": "CT", "StoreName": "ChoicePet|CT"},
{"Country": "USA", "Phone": "Store: (203) 405-1303Grooming: (203) 405-3381", "Duration": "MON->8:00am-9:00pm|TUE->8:00am-9:00pm|WED->8:00am-9:00pm|THU->8:00am-9:00pm|FRI->8:00am-9:00pm|SAT->8:00am-9:00pm|SUN->9:00am-7:00pm|", "Latitude": "41.47901", "Longitude": "-73.2131", "Street": "100 Main Street N Ste 11Southbury", "City": "", "Zipcode": "06488", "State": "CT", "StoreName": "ChoicePet|CT"},
{"Country": "USA", "Phone": "(908) 665-8600", "Duration": "MON->8:00am-9:00pm|TUE->8:00am-9:00pm|WED->8:00am-9:00pm|THU->8:00am-9:00pm|FRI->8:00am-9:00pm|SAT->8:00am-9:00pm|SUN->9:00am-7:00pm|", "Latitude": "40.70554", "Longitude": "-74.4048", "Street": "1260 Springfield Ave", "City": "NewProvidence", "Zipcode": "07974", "State": "NJ", "StoreName": "ChoicePet|NJ"},
{"Country": "USA", "Phone": "(914) 628-8888", "Duration": "MON->8:00am-9:00pm|TUE->8:00am-9:00pm|WED->8:00am-9:00pm|THU->8:00am-9:00pm|FRI->8:00am-9:00pm|SAT->8:00am-9:00pm|SUN->9:00am-7:00pm|", "Latitude": "41.34341", "Longitude": "-73.7569", "Street": "80 US Route 6", "City": "BaldwinPlace", "Zipcode": "10505", "State": "NY", "StoreName": "ChoicePet|NY"},
{"Country": "USA", "Phone": "(914) 725-3022", "Duration": "MON->8:00am-9:00pm|TUE->8:00am-9:00pm|WED->8:00am-9:00pm|THU->8:00am-9:00pm|FRI->8:00am-9:00pm|SAT->8:00am-9:00pm|SUN->9:00am-7:00pm|", "Latitude": "40.98475", "Longitude": "-73.7750", "Street": "1 Palmer Ave", "City": "Scarsdale", "Zipcode": "10583", "State": "NY", "StoreName": "ChoicePet|NY"},
{"Country": "USA", "Phone": "(914) 684-1444", "Duration": "MON->8:00am-9:00pm|TUE->8:00am-9:00pm|WED->8:00am-9:00pm|THU->8:00am-9:00pm|FRI->8:00am-9:00pm|SAT->8:00am-9:00pm|SUN->9:00am-7:00pm|", "Latitude": "41.02616", "Longitude": "-73.7930", "Street": "241 N Central Ave", "City": "Hartsdale", "Zipcode": "10530", "State": "NY", "StoreName": "ChoicePet|NY"},
{"Country": "USA", "Phone": "(845) 225-2762", "Duration": "MON->8:00am-9:00pm|TUE->8:00am-9:00pm|WED->8:00am-9:00pm|THU->8:00am-9:00pm|FRI->8:00am-9:00pm|SAT->8:00am-9:00pm|SUN->9:00am-7:00pm|", "Latitude": "41.41190", "Longitude": "-73.6639", "Street": "1920 US Route 6", "City": "Carmel", "Zipcode": "10512", "State": "NY", "StoreName": "ChoicePet|NY"}
]